City_ID,City,Lat,Lng,Max Temp,Humidity,Cloudiness,Wind Speed,Country,Date
0,nikolskoye,59.7035,30.7861,21.26,58,36,3.68,RU,2023-08-16 06:00:00
1,baghdad,33.3406,44.4009,43.23,18,0,1.74,IQ,2023-08-16 06:00:00
2,rikitea,-23.1203,-134.9692,20.77,57,0,6.47,PF,2023-08-16 06:00:00
3,comodoro rivadavia,-45.8667,-67.5,1.89,60,75,4.06,AR,2023-08-16 06:00:00
4,nueva guinea,11.6876,-84.4562,22.03,98,86,1.94,NI,2023-08-16 06:00:00
5,mackenzie,55.2999,-123.1698,15.12,63,0,0.54,CA,2023-08-16 06:00:00
6,opuwo,-18.0607,13.84,16.68,35,3,0.88,NA,2023-08-16 06:00:00
7,hermanus,-34.4187,19.2345,11.0,80,100,4.56,ZA,2023-08-16 06:00:00
8,farah,32.5,62.5,27.73,10,0,2.07,AF,2023-08-16 06:00:00
9,sovetskaya gavan,48.9723,140.2878,22.36,74,100,3.08,RU,2023-08-16 06:00:00
10,otane,-39.8833,176.6333,12.23,87,74,0.62,NZ,2023-08-16 06:00:00
11,avarua,-21.2078,-159.775,23.03,64,20,7.61,CK,2023-08-16 06:00:00
12,busselton,-33.65,115.3333,14.64,52,7,6.52,AU,2023-08-16 06:00:00
13,zatoka,46.0725,30.4654,25.14,69,0,7.71,UA,2023-08-16 06:00:00
14,tiksi,71.6872,128.8694,8.61,87,100,2.6,RU,2023-08-16 06:00:00
15,georgetown,5.4112,100.3354,31.78,67,20,3.24,MY,2023-08-16 06:00:00
16,port alfred,-33.5906,26.891,14.66,85,100,9.09,ZA,2023-08-16 06:00:00
17,narsaq,60.9167,-46.05,7.12,85,40,1.02,GL,2023-08-16 06:00:00
18,jamestown,42.097,-79.2353,16.2,98,100,1.85,US,2023-08-16 06:00:00
19,saint andrews,34.0454,-81.1293,24.63,65,40,3.01,US,2023-08-16 06:00:00
20,ballsh,40.5989,19.7347,24.67,52,0,1.41,AL,2023-08-16 06:00:00
21,bluff,-46.6,168.3333,9.33,84,90,4.03,NZ,2023-08-16 06:00:00
22,mataura,-46.1927,168.8643,9.15,98,93,1.2,NZ,2023-08-16 06:00:00
23,santa ana,33.7456,-117.8678,23.55,73,40,2.31,US,2023-08-16 06:00:00
24,batemans bay,-35.7167,150.1833,16.16,57,5,5.02,AU,2023-08-16 06:00:00
25,atuona,-9.8,-139.0333,26.08,79,19,6.77,PF,2023-08-16 06:00:00
26,bundaberg,-24.85,152.35,21.66,71,35,4.74,AU,2023-08-16 06:00:00
27,el carrizo,24.0261,-106.8814,26.74,89,91,1.72,MX,2023-08-16 06:00:00
28,bambous virieux,-20.3428,57.7575,24.14,78,40,5.36,MU,2023-08-16 06:00:00
29,sechura,-5.5569,-80.8222,21.49,82,36,5.17,PE,2023-08-16 06:00:00
30,fowa,8.9167,6.4,22.55,92,34,1.19,NG,2023-08-16 06:00:00
31,kaoma,-14.7833,24.8,18.68,24,0,3.27,ZM,2023-08-16 06:00:00
32,vaini,-21.2,-175.2,22.17,94,75,6.9,TO,2023-08-16 06:00:00
33,benguela,-12.5763,13.4055,19.34,88,23,0.62,AO,2023-08-16 06:00:00
34,provideniya,64.3833,-173.3,11.32,93,40,2.77,RU,2023-08-16 06:00:00
35,bengkulu,-3.8004,102.2655,28.66,68,62,6.53,ID,2023-08-16 06:00:00
36,tupiza,-21.45,-65.7167,10.82,19,0,2.63,BO,2023-08-16 06:00:00
37,cayenne,4.9333,-52.3333,25.48,100,75,4.61,GF,2023-08-16 06:00:00
38,leh,34.1667,77.5833,20.31,34,7,2.69,IN,2023-08-16 06:00:00
39,bonnyville,54.2668,-110.735,14.97,89,100,6.75,CA,2023-08-16 06:00:00
40,north bend,43.4065,-124.2243,16.1,100,100,2.29,US,2023-08-16 06:00:00
41,mokhsogollokh,61.4681,128.9203,14.04,90,100,3.37,RU,2023-08-16 06:00:00
42,vao,-22.6667,167.4833,19.71,53,0,3.35,NC,2023-08-16 06:00:00
43,mar del plata,-38.0023,-57.5575,12.12,87,0,3.54,AR,2023-08-16 06:00:00
44,barrow,71.2906,-156.7887,7.01,93,100,3.58,US,2023-08-16 06:00:00
45,khani,41.9563,42.9566,28.37,36,6,1.63,GE,2023-08-16 06:00:00
46,cidreira,-30.1811,-50.2056,15.04,91,27,3.53,BR,2023-08-16 06:00:00
47,torbay,47.6666,-52.7314,16.22,97,75,2.31,CA,2023-08-16 06:00:00
48,port elizabeth,-33.918,25.5701,15.16,67,0,6.24,ZA,2023-08-16 06:00:00
49,albany,42.6001,-73.9662,19.05,92,96,1.87,US,2023-08-16 06:00:00
50,ilebo,-4.3167,20.5833,24.13,79,47,0.47,CD,2023-08-16 06:00:00
51,caravelas,-17.7125,-39.2481,20.84,90,100,2.41,BR,2023-08-16 06:00:00
52,krasnaya gora,52.9995,31.6023,21.05,71,0,1.64,RU,2023-08-16 06:00:00
53,san lorenzo,-25.3333,-57.5333,23.66,64,0,4.82,PY,2023-08-16 06:00:00
54,cape town,-33.9258,18.4232,12.62,68,100,5.44,ZA,2023-08-16 06:00:00
55,ribeira grande,38.5167,-28.7,23.79,90,17,4.73,PT,2023-08-16 06:00:00
56,cabo san lucas,22.8909,-109.9124,29.65,77,37,2.72,MX,2023-08-16 06:00:00
57,ushuaia,-54.8,-68.3,0.81,69,20,2.17,AR,2023-08-16 06:00:00
58,carnarvon,-24.8667,113.6333,19.19,47,51,11.31,AU,2023-08-16 06:00:00
59,kanonji,34.1167,133.65,32.53,74,26,0.45,JP,2023-08-16 06:00:00
60,kapaa,22.0752,-159.319,25.13,82,20,5.76,US,2023-08-16 06:00:00
61,poum,-20.2333,164.0167,21.52,67,0,7.44,NC,2023-08-16 06:00:00
62,lata,40.1629,-8.3327,16.07,94,80,1.04,PT,2023-08-16 06:00:00
63,mantenopolis,-18.8625,-41.1228,18.46,91,94,1.44,BR,2023-08-16 06:00:00
64,pingliang,35.5392,106.6861,29.04,46,32,2.93,CN,2023-08-16 06:00:00
65,sur,22.5667,59.5289,33.39,48,100,3.69,OM,2023-08-16 06:00:00
66,bredasdorp,-34.5322,20.0403,9.2,89,100,2.15,ZA,2023-08-16 06:00:00
67,mahon,39.8885,4.2658,25.89,94,20,4.39,ES,2023-08-16 06:00:00
68,vila franca do campo,37.7167,-25.4333,21.05,88,17,0.59,PT,2023-08-16 06:00:00
69,jiwani,25.05,61.7417,27.37,80,100,4.66,PK,2023-08-16 06:00:00
70,portland,45.5234,-122.6762,29.57,51,0,0.94,US,2023-08-16 06:00:00
71,udachnyy,66.4167,112.4,26.36,38,37,4.58,RU,2023-08-16 06:00:00
72,tasiilaq,65.6145,-37.6368,6.09,86,9,1.47,GL,2023-08-16 06:00:00
73,fortuna,40.5982,-124.1573,20.57,94,0,1.13,US,2023-08-16 06:00:00
74,namibe,-15.1961,12.1522,16.45,88,22,3.7,AO,2023-08-16 06:00:00
75,rio grande,-32.035,-52.0986,14.17,87,74,4.23,BR,2023-08-16 06:00:00
76,khatanga,71.9667,102.5,10.76,77,100,4.53,RU,2023-08-16 06:00:00
77,griffith,41.5284,-87.4237,16.01,93,0,1.68,US,2023-08-16 06:00:00
78,yellowknife,62.456,-114.3525,14.03,70,40,2.89,CA,2023-08-16 06:00:00
79,airai,-8.9266,125.4092,22.71,50,30,1.48,TL,2023-08-16 06:00:00
80,toppenish,46.3774,-120.3087,30.58,25,0,2.59,US,2023-08-16 06:00:00
81,neiafu,-18.65,-173.9833,24.5,94,100,9.03,TO,2023-08-16 06:00:00
82,santa maria,-29.6842,-53.8069,15.63,86,60,1.94,BR,2023-08-16 06:00:00
83,general roca,-39.0333,-67.5833,12.57,77,86,8.5,AR,2023-08-16 06:00:00
84,xai-xai,-25.0519,33.6442,21.06,66,92,5.2,MZ,2023-08-16 06:00:00
85,vila velha,-20.3297,-40.2925,22.05,94,75,3.58,BR,2023-08-16 06:00:00
86,sulangan,11.1373,123.7228,28.84,71,55,2.67,PH,2023-08-16 06:00:00
87,saint-philippe,-21.3585,55.7679,24.77,72,1,3.81,RE,2023-08-16 06:00:00
88,manuk mangkaw,4.8,119.85,27.32,80,100,6.26,PH,2023-08-16 06:00:00
89,ahipara,-35.1667,173.1667,13.23,81,6,6.45,NZ,2023-08-16 06:00:00
90,qaanaaq,77.484,-69.3632,2.79,66,69,3.74,GL,2023-08-16 06:00:00
91,kodiak,57.79,-152.4072,10.73,93,100,1.6,US,2023-08-16 06:00:00
92,buchanan,5.8808,-10.0467,24.6,82,98,3.28,LR,2023-08-16 06:00:00
93,surt,31.2089,16.5887,25.55,66,0,3.16,LY,2023-08-16 06:00:00
94,hobart,-42.8794,147.3294,15.12,58,75,3.21,AU,2023-08-16 06:00:00
95,thompson,55.7435,-97.8558,15.09,88,100,4.56,CA,2023-08-16 06:00:00
96,malakal,9.5334,31.6605,24.89,83,98,2.16,SS,2023-08-16 06:00:00
97,yulara,-25.2406,130.9889,29.67,20,27,9.46,AU,2023-08-16 06:00:00
98,katsuura,35.1333,140.3,30.01,79,25,6.7,JP,2023-08-16 06:00:00
99,krasnaya polyana,56.242,51.1442,24.05,59,98,2.2,RU,2023-08-16 06:00:00
100,castro,-24.7911,-50.0119,11.97,99,77,1.94,BR,2023-08-16 06:00:00
101,yekaterinogradskaya,43.7635,44.2317,29.68,36,56,2.47,RU,2023-08-16 06:00:00
102,longyearbyen,78.2186,15.6401,5.91,81,75,2.83,SJ,2023-08-16 06:00:00
103,sakakah,29.9697,40.2064,37.34,9,5,3.09,SA,2023-08-16 06:00:00
104,kavaratti,10.5669,72.642,27.64,74,49,2.95,IN,2023-08-16 06:00:00
105,shwebo,22.5667,95.7,32.17,58,86,3.93,MM,2023-08-16 06:00:00
106,mandalgovi,45.7625,106.2708,23.33,42,100,5.15,MN,2023-08-16 06:00:00
107,tuktoyaktuk,69.4541,-133.0374,8.0,87,100,5.24,CA,2023-08-16 06:00:00
108,yar-sale,66.8333,70.8333,16.78,57,60,3.98,RU,2023-08-16 06:00:00
109,port keats,-14.25,129.55,27.46,60,36,6.3,AU,2023-08-16 06:00:00
110,leningradskiy,69.3833,178.4167,6.88,87,100,1.93,RU,2023-08-16 06:00:00
111,hithadhoo,-0.6,73.0833,27.83,68,20,2.86,MV,2023-08-16 06:00:00
112,upernavik,72.7868,-56.1549,4.91,80,39,2.21,GL,2023-08-16 06:00:00
113,klaksvik,62.2266,-6.589,10.42,85,100,2.33,FO,2023-08-16 06:00:00
114,punta arenas,-53.15,-70.9167,0.34,80,8,4.23,CL,2023-08-16 06:00:00
115,san quintin,30.4833,-115.95,20.67,85,99,5.4,MX,2023-08-16 06:00:00
116,hasaki,35.7333,140.8333,32.24,79,68,7.04,JP,2023-08-16 06:00:00
117,mayo,38.8876,-76.5119,23.02,90,100,4.33,US,2023-08-16 06:00:00
118,chapais,49.7834,-74.8492,11.88,73,32,1.94,CA,2023-08-16 06:00:00
119,alpharetta,34.0754,-84.2941,21.03,90,2,2.02,US,2023-08-16 06:00:00
120,cherskiy,68.75,161.3,13.38,48,100,3.5,RU,2023-08-16 06:00:00
121,shiyan,32.6475,110.7781,35.06,39,91,2.1,CN,2023-08-16 06:00:00
122,bethel,41.3712,-73.414,19.77,88,100,1.28,US,2023-08-16 06:00:00
123,bathsheba,13.2167,-59.5167,28.34,83,40,7.19,BB,2023-08-16 06:00:00
124,dunedin,-45.8742,170.5036,9.33,56,27,3.68,NZ,2023-08-16 06:00:00
125,palma soriano,20.2172,-75.9989,27.48,93,87,0.61,CU,2023-08-16 06:00:00
126,chuy,-33.6971,-53.4616,14.78,82,88,3.75,UY,2023-08-16 06:00:00
127,butaritari,3.0707,172.7902,29.27,67,91,4.29,KI,2023-08-16 06:00:00
128,puerto ayora,-0.7393,-90.3518,23.09,93,17,2.63,EC,2023-08-16 06:00:00
129,quatre cocos,-20.2078,57.7625,25.05,67,12,5.18,MU,2023-08-16 06:00:00
130,saskylakh,71.9167,114.0833,17.17,55,100,3.29,RU,2023-08-16 06:00:00
131,srednekolymsk,67.45,153.6833,22.2,49,100,3.37,RU,2023-08-16 06:00:00
132,deputatskiy,69.3,139.9,19.37,39,22,2.34,RU,2023-08-16 06:00:00
133,jiangdu,32.4286,119.5574,31.57,64,34,1.29,CN,2023-08-16 06:00:00
134,show low,34.2542,-110.0298,20.43,61,0,2.92,US,2023-08-16 06:00:00
135,nuuk,64.1835,-51.7216,13.34,47,16,2.95,GL,2023-08-16 06:00:00
136,hamilton,39.1834,-84.5333,18.82,90,100,1.85,US,2023-08-16 06:00:00
137,east london,-33.0153,27.9116,15.03,82,0,7.05,ZA,2023-08-16 06:00:00
138,krasnoturinsk,59.7666,60.2086,25.03,58,17,1.65,RU,2023-08-16 06:00:00
139,pafos,34.7667,32.4167,27.97,57,0,3.07,CY,2023-08-16 06:00:00
140,oranjestad,12.524,-70.027,28.28,91,88,9.01,AW,2023-08-16 06:00:00
141,alofi,-19.0595,-169.9187,24.79,94,10,4.62,NU,2023-08-16 06:00:00
142,kaitangata,-46.2817,169.8464,5.82,90,53,2.35,NZ,2023-08-16 06:00:00
143,nyurba,63.2842,118.3319,24.07,47,21,1.93,RU,2023-08-16 06:00:00
144,russell,32.3502,-85.1999,23.57,100,75,2.17,US,2023-08-16 06:00:00
145,seoul,37.5683,126.9778,31.15,62,75,2.8,KR,2023-08-16 06:00:00
146,tual,-5.6667,132.75,25.38,79,21,6.45,ID,2023-08-16 06:00:00
147,muzhi,65.3667,64.6667,19.66,60,83,3.2,RU,2023-08-16 06:00:00
148,zhigansk,66.7697,123.3711,21.85,34,78,1.78,RU,2023-08-16 06:00:00
149,okhotsk,59.3833,143.3,14.55,89,100,2.71,RU,2023-08-16 06:00:00
150,kavieng,-2.5744,150.7967,24.37,91,100,4.89,PG,2023-08-16 06:00:00
151,port lincoln,-34.7333,135.8667,17.03,55,49,5.4,AU,2023-08-16 06:00:00
152,brae,60.3964,-1.353,12.89,81,90,3.51,GB,2023-08-16 06:00:00
153,dikson,73.5069,80.5464,3.21,83,91,5.12,RU,2023-08-16 06:00:00
154,majene,-3.5403,118.9707,29.97,61,14,4.97,ID,2023-08-16 06:00:00
155,faanui,-16.4833,-151.75,25.27,78,79,8.58,PF,2023-08-16 06:00:00
156,wasilla,61.5814,-149.4394,12.52,93,100,1.01,US,2023-08-16 06:00:00
157,zhovti vody,48.3473,33.5003,25.45,51,0,4.51,UA,2023-08-16 06:00:00
158,dunmore east,52.1514,-6.9861,13.34,77,17,2.72,IE,2023-08-16 06:00:00
159,sao joao da barra,-21.6403,-41.0511,21.85,82,100,3.83,BR,2023-08-16 06:00:00
160,faya,18.3851,42.4509,25.41,28,17,0.21,SA,2023-08-16 06:00:00
161,contai,21.7786,87.7536,32.57,63,92,1.14,IN,2023-08-16 06:00:00
162,kloulklubed,7.0419,134.2556,30.28,76,96,4.9,PW,2023-08-16 06:00:00
163,kahului,20.8947,-156.47,25.74,68,40,5.22,US,2023-08-16 06:00:00
164,kununurra,-15.7667,128.7333,33.99,29,40,2.68,AU,2023-08-16 06:00:00
165,fairbanks,64.8378,-147.7164,18.21,60,40,2.41,US,2023-08-16 06:00:00
166,berbera,10.4396,45.0143,35.14,37,23,11.28,SO,2023-08-16 06:00:00
167,richards bay,-28.783,32.0377,16.95,69,100,0.74,ZA,2023-08-16 06:00:00
168,kadirli,37.3739,36.0961,29.96,61,54,1.9,TR,2023-08-16 06:00:00
169,urengoy,65.9667,78.3667,13.67,64,100,7.62,RU,2023-08-16 06:00:00
170,praxedis guerrero,31.3667,-106.0167,28.64,38,25,4.7,MX,2023-08-16 06:00:00
171,azare,11.6765,10.1948,25.27,67,35,1.21,NG,2023-08-16 06:00:00
172,filadelfia,39.9523,-75.1638,23.24,92,100,0.99,US,2023-08-16 06:00:00
173,naryan-mar,67.6713,53.087,22.12,74,77,3.15,RU,2023-08-16 06:00:00
174,adeje,28.1227,-16.726,24.6,81,0,2.25,ES,2023-08-16 06:00:00
175,mecca,21.4267,39.8261,32.52,61,45,3.29,SA,2023-08-16 06:00:00
176,port hardy,50.6996,-127.4199,15.1,100,20,4.21,CA,2023-08-16 06:00:00
177,saint george,37.1041,-113.5841,25.96,58,0,1.77,US,2023-08-16 06:00:00
178,awbari,26.5921,12.7805,30.38,20,2,6.4,LY,2023-08-16 06:00:00
179,knysna,-34.0363,23.0471,11.77,70,99,2.95,ZA,2023-08-16 06:00:00
180,maxixe,-23.8597,35.3472,21.55,65,89,6.69,MZ,2023-08-16 06:00:00
181,puerto madryn,-42.7692,-65.0385,4.45,80,100,7.7,AR,2023-08-16 06:00:00
182,gold coast,-28.0,153.4333,21.48,57,44,3.2,AU,2023-08-16 06:00:00
183,riosucio,5.4216,-75.7032,14.32,98,87,0.41,CO,2023-08-16 06:00:00
184,hilo,19.7297,-155.09,24.47,91,81,1.0,US,2023-08-16 06:00:00
185,la fria,8.2203,-72.2439,27.06,93,95,1.44,VE,2023-08-16 06:00:00
186,menzelinsk,55.7271,53.1026,25.62,42,99,4.12,RU,2023-08-16 06:00:00
187,victoria,22.2855,114.1577,32.79,75,85,5.51,HK,2023-08-16 06:00:00
188,norfolk,42.1668,-71.2495,18.81,95,75,0.81,US,2023-08-16 06:00:00
189,zelenoborsk,61.4669,64.0333,24.17,54,80,2.18,RU,2023-08-16 06:00:00
190,libertador general san martin,-23.8064,-64.7876,18.67,54,0,1.37,AR,2023-08-16 06:00:00
191,bandrele,-12.9067,45.1914,26.86,78,20,2.38,YT,2023-08-16 06:00:00
192,makakilo city,21.3469,-158.0858,25.71,65,0,6.02,US,2023-08-16 06:00:00
193,necochea,-38.5473,-58.7368,10.31,79,100,6.39,AR,2023-08-16 06:00:00
194,hovd,48.0056,91.6419,19.14,19,82,1.96,MN,2023-08-16 06:00:00
195,pevek,69.7008,170.3133,4.18,84,100,2.8,RU,2023-08-16 06:00:00
196,young,-32.6833,-57.6333,18.81,70,80,4.77,UY,2023-08-16 06:00:00
197,severo-kurilsk,50.6789,156.125,12.76,92,100,4.32,RU,2023-08-16 06:00:00
198,heihe,50.2441,127.4902,28.09,59,59,1.67,CN,2023-08-16 06:00:00
199,concordia,-31.393,-58.0209,20.99,75,67,4.36,AR,2023-08-16 06:00:00
200,vestmannaeyjar,63.4427,-20.2734,11.68,92,100,4.12,IS,2023-08-16 06:00:00
201,aksum,14.1245,38.7244,17.2,78,100,1.57,ET,2023-08-16 06:00:00
202,ushtobe,45.2514,77.9838,27.59,17,61,5.61,KZ,2023-08-16 06:00:00
203,sabzevar,36.2126,57.6819,25.76,20,0,4.44,IR,2023-08-16 06:00:00
204,marysville,48.0518,-122.1771,21.61,73,40,0.59,US,2023-08-16 06:00:00
205,yakeshi,49.2833,120.7333,23.38,70,89,1.81,CN,2023-08-16 06:00:00
206,santa rosa,14.3122,121.1114,32.08,66,62,5.02,PH,2023-08-16 06:00:00
207,samarai,-10.6167,150.6667,24.51,72,100,5.5,PG,2023-08-16 06:00:00
208,isoka,-10.1606,32.6335,20.59,53,0,1.64,ZM,2023-08-16 06:00:00
209,namatanai,-3.6667,152.4333,24.45,91,100,0.76,PG,2023-08-16 06:00:00
210,perelyub,51.8667,50.3667,26.18,46,0,6.57,RU,2023-08-16 06:00:00
211,lebu,-37.6167,-73.65,11.28,93,94,2.07,CL,2023-08-16 06:00:00
212,northam,51.0333,-4.2167,13.46,87,23,1.24,GB,2023-08-16 06:00:00
213,avera,33.194,-82.5271,22.95,95,84,3.25,US,2023-08-16 06:00:00
214,constitucion,-35.3333,-72.4167,12.31,92,100,3.84,CL,2023-08-16 06:00:00
215,andenes,69.3143,16.1194,11.99,87,75,10.84,NO,2023-08-16 06:00:00
216,el vigia,8.6219,-71.6506,24.6,81,100,2.0,VE,2023-08-16 06:00:00
217,karratha,-20.7377,116.8463,26.91,24,3,3.74,AU,2023-08-16 06:00:00
218,mandan,46.8267,-100.8896,21.62,70,0,3.42,US,2023-08-16 06:00:00
219,verkhnyaya inta,65.9811,60.3094,22.87,46,70,0.66,RU,2023-08-16 06:00:00
220,tautira,-17.7333,-149.15,24.02,74,88,7.12,PF,2023-08-16 06:00:00
221,souillac,-20.5167,57.5167,24.43,78,40,4.22,MU,2023-08-16 06:00:00
222,qui nhon,13.7667,109.2333,33.31,55,100,4.51,VN,2023-08-16 06:00:00
223,gizo,-8.103,156.8419,27.14,83,82,5.98,SB,2023-08-16 06:00:00
224,mayskiy,47.6931,40.1025,28.39,41,0,2.99,RU,2023-08-16 06:00:00
225,tyup,42.7276,78.3648,21.39,28,0,3.31,KG,2023-08-16 06:00:00
226,zyryanskoye,56.8306,86.6258,12.94,92,100,7.53,RU,2023-08-16 06:00:00
227,shirokiy,49.758,129.523,28.31,58,13,1.37,RU,2023-08-16 06:00:00
228,andros,37.8333,24.9333,27.07,70,0,6.81,GR,2023-08-16 06:00:00
229,mount gambier,-37.8333,140.7667,14.86,56,3,3.88,AU,2023-08-16 06:00:00
230,asau,46.4333,26.4,20.26,75,100,1.57,RO,2023-08-16 06:00:00
231,beian,63.6559,9.5683,14.05,100,75,3.82,NO,2023-08-16 06:00:00
232,acapulco,16.8634,-99.8901,26.53,89,100,3.98,MX,2023-08-16 06:00:00
233,kroonstad,-27.6504,27.2349,10.21,75,46,4.86,ZA,2023-08-16 06:00:00
234,sioux lookout,50.1001,-91.917,15.04,100,100,1.16,CA,2023-08-16 06:00:00
235,verkhniy landekh,56.8389,42.5994,21.2,71,3,4.32,RU,2023-08-16 06:00:00
236,ternate,0.8,127.4,27.9,75,100,5.65,ID,2023-08-16 06:00:00
237,salalah,17.0151,54.0924,26.05,100,100,5.1,OM,2023-08-16 06:00:00
238,bogorodskoye,56.55,37.8833,19.69,65,0,2.8,RU,2023-08-16 06:00:00
239,lasa,46.6166,10.7002,20.52,75,94,1.13,IT,2023-08-16 06:00:00
240,isla mujeres,21.2311,-86.731,28.71,83,67,3.82,MX,2023-08-16 06:00:00
241,gasa,31.5,34.4667,27.78,64,78,2.67,PS,2023-08-16 06:00:00
242,zhigalovo,54.8097,105.1578,13.5,98,100,1.63,RU,2023-08-16 06:00:00
243,strzegom,50.9626,16.3501,22.36,66,95,1.46,PL,2023-08-16 06:00:00
244,vardo,70.3705,31.1107,12.99,82,100,4.06,NO,2023-08-16 06:00:00
245,chara,56.9064,118.2631,23.97,42,13,0.65,RU,2023-08-16 06:00:00
246,saldanha,-33.0117,17.9442,12.6,89,100,6.9,ZA,2023-08-16 06:00:00
247,new norfolk,-42.7826,147.0587,14.86,57,95,2.64,AU,2023-08-16 06:00:00
248,fort myers beach,26.452,-81.9481,29.68,83,0,2.76,US,2023-08-16 06:00:00
249,raniganj,23.6167,87.1333,36.12,62,40,3.4,IN,2023-08-16 06:00:00
250,volokonovka,50.4827,37.8563,24.43,57,0,3.79,RU,2023-08-16 06:00:00
251,hambantota,6.1241,81.1185,33.19,58,20,8.92,LK,2023-08-16 06:00:00
252,batouri,4.4333,14.3667,20.45,97,74,0.47,CM,2023-08-16 06:00:00
253,vagur,61.4732,-6.8119,11.02,81,99,2.89,FO,2023-08-16 06:00:00
254,yarada,17.65,83.2667,32.0,61,100,3.77,IN,2023-08-16 06:00:00
255,sinnamary,5.3833,-52.95,24.55,92,78,3.74,GF,2023-08-16 06:00:00
256,suntar,62.1444,117.6319,21.46,64,97,2.22,RU,2023-08-16 06:00:00
257,aleksandriya,45.0947,43.2456,29.49,35,9,4.01,RU,2023-08-16 06:00:00
258,rongcheng,30.634,117.8517,34.16,53,12,1.46,CN,2023-08-16 06:00:00
259,norman wells,65.282,-126.8329,15.02,72,75,1.02,CA,2023-08-16 06:00:00
260,mount isa,-20.7333,139.5,31.87,18,87,1.48,AU,2023-08-16 06:00:00
261,clyde river,70.4692,-68.5914,11.13,100,0,2.43,CA,2023-08-16 06:00:00
262,vanavara,60.34,102.2797,19.96,43,89,2.72,RU,2023-08-16 06:00:00
263,cantagalo,-21.9811,-42.3681,17.91,94,100,1.0,BR,2023-08-16 06:00:00
264,bocaiuva,-17.1078,-43.815,16.34,79,99,2.19,BR,2023-08-16 06:00:00
265,bayir,37.2687,28.2167,28.49,57,0,2.27,TR,2023-08-16 06:00:00
266,ulaangom,49.9811,92.0667,19.8,32,86,3.5,MN,2023-08-16 06:00:00
267,itaituba,-4.2761,-55.9836,21.77,53,16,0.54,BR,2023-08-16 06:00:00
268,urubicha,-15.3833,-62.95,19.76,65,0,0.04,BO,2023-08-16 06:00:00
269,phan thiet,10.9333,108.1,32.5,59,51,7.43,VN,2023-08-16 06:00:00
270,banda aceh,5.5577,95.3222,30.81,62,98,6.22,ID,2023-08-16 06:00:00
271,vila,42.0304,-8.1588,11.5,97,4,1.67,PT,2023-08-16 06:00:00
272,cairns,-16.9167,145.7667,26.96,47,90,2.75,AU,2023-08-16 06:00:00
273,yabrud,33.9674,36.6574,30.89,18,0,0.42,SY,2023-08-16 06:00:00
274,leshukonskoye,64.8989,45.7622,21.35,66,99,1.82,RU,2023-08-16 06:00:00
275,meulaboh,4.1363,96.1285,29.08,68,95,2.28,ID,2023-08-16 06:00:00
276,moose factory,51.2585,-80.6094,15.99,94,100,3.82,CA,2023-08-16 06:00:00
277,talara,-4.5772,-81.2719,21.63,87,92,5.34,PE,2023-08-16 06:00:00
278,broome,42.2506,-75.833,18.89,97,32,2.4,US,2023-08-16 06:00:00
279,luderitz,-26.6481,15.1594,12.12,83,2,0.06,NA,2023-08-16 06:00:00
280,menongue,-14.6585,17.691,14.31,22,7,1.61,AO,2023-08-16 06:00:00
281,sao miguel do araguaia,-13.275,-50.1628,22.33,38,81,2.99,BR,2023-08-16 06:00:00
282,adilabad,19.6667,78.5333,27.72,68,46,4.96,IN,2023-08-16 06:00:00
283,weyburn,49.6668,-103.8511,22.22,60,74,4.01,CA,2023-08-16 06:00:00
284,suamico,44.6319,-88.0393,17.37,77,0,3.54,US,2023-08-16 06:00:00
285,san joaquin,37.9333,-121.3011,27.92,50,0,2.67,US,2023-08-16 06:00:00
286,geraldton,-28.7667,114.6,17.23,77,75,9.51,AU,2023-08-16 06:00:00
287,shache,38.4167,77.2406,27.62,27,74,3.53,CN,2023-08-16 06:00:00
288,boa vista,2.8197,-60.6733,26.99,78,40,1.77,BR,2023-08-16 06:00:00
289,beringovskiy,63.05,179.3167,11.99,84,77,4.82,RU,2023-08-16 06:00:00
290,nola,40.922,14.5329,24.96,84,0,0.38,IT,2023-08-16 06:00:00
291,poitiers,46.5833,0.3333,17.57,59,0,1.89,FR,2023-08-16 06:00:00
292,cilegon,-6.0174,106.0538,28.97,63,85,3.45,ID,2023-08-16 06:00:00
293,muncar,-8.4333,114.3333,27.46,67,59,4.67,ID,2023-08-16 06:00:00
294,harlingen,26.1906,-97.6961,27.79,88,0,2.7,US,2023-08-16 06:00:00
295,golspie,57.9727,-3.978,13.25,97,75,1.17,GB,2023-08-16 06:00:00
296,kruisfontein,-34.0033,24.7314,12.16,78,98,2.61,ZA,2023-08-16 06:00:00
297,pisco,-13.7,-76.2167,19.03,72,100,1.29,PE,2023-08-16 06:00:00
298,hailin,44.5833,129.4167,26.04,79,81,4.37,CN,2023-08-16 06:00:00
299,dingle,10.9995,122.6711,29.86,75,54,3.38,PH,2023-08-16 06:00:00
300,puerto escondido,15.85,-97.0667,26.91,80,98,5.23,MX,2023-08-16 06:00:00
301,nelson bay,-32.7167,152.15,17.52,72,38,5.63,AU,2023-08-16 06:00:00
302,kamina,-8.7386,24.9906,24.72,30,86,1.91,CD,2023-08-16 06:00:00
303,ancud,-41.8697,-73.8203,7.74,94,19,2.89,CL,2023-08-16 06:00:00
304,wanning,18.8003,110.3967,32.55,63,100,5.52,CN,2023-08-16 06:00:00
305,atar,20.5169,-13.0499,31.57,42,62,2.47,MR,2023-08-16 06:00:00
306,bad freienwalde,52.7873,14.0304,21.31,97,88,3.28,DE,2023-08-16 06:00:00
307,kendari,-3.945,122.4989,29.93,54,20,4.11,ID,2023-08-16 06:00:00
308,nizwa,22.9333,57.5333,34.35,33,91,2.76,OM,2023-08-16 06:00:00
309,plouzane,48.3833,-4.6167,14.42,97,100,2.69,FR,2023-08-16 06:00:00
310,inhambane,-23.865,35.3833,21.6,66,91,7.16,MZ,2023-08-16 06:00:00
311,talcahuano,-36.7167,-73.1167,11.71,95,100,5.18,CL,2023-08-16 06:00:00
312,makrana,27.05,74.7167,31.6,51,81,3.91,IN,2023-08-16 06:00:00
313,hualmay,-11.0964,-77.6139,18.4,87,12,4.77,PE,2023-08-16 06:00:00
314,lazaro cardenas,17.9583,-102.2,26.67,86,95,1.65,MX,2023-08-16 06:00:00
315,sotuta,20.6,-89.0167,23.38,98,90,1.31,MX,2023-08-16 06:00:00
316,nisia floresta,-6.0911,-35.2086,21.21,90,15,3.59,BR,2023-08-16 06:00:00
317,aykhal,66.0,111.5,24.17,38,39,4.99,RU,2023-08-16 06:00:00
318,urzhum,57.1141,49.9996,23.42,61,93,1.73,RU,2023-08-16 06:00:00
319,buraydah,26.326,43.975,37.81,7,5,2.09,SA,2023-08-16 06:00:00
320,morros,-9.4467,-46.3003,21.03,45,12,3.12,BR,2023-08-16 06:00:00
321,aklavik,68.2191,-135.0107,11.37,87,96,4.21,CA,2023-08-16 06:00:00
322,rocha,-34.4833,-54.3333,17.45,70,96,4.37,UY,2023-08-16 06:00:00
323,sirnak,37.5228,42.4594,31.82,10,0,1.2,TR,2023-08-16 06:00:00
324,okmulgee,35.6234,-95.9605,18.87,71,0,1.62,US,2023-08-16 06:00:00
325,sundsvall,62.3913,17.3063,17.74,94,100,1.86,SE,2023-08-16 06:00:00
326,makat,47.6469,53.3463,30.87,31,25,3.35,KZ,2023-08-16 06:00:00
327,zhezkazgan,47.8043,67.7144,24.67,38,0,5.16,KZ,2023-08-16 06:00:00
328,port-gentil,-0.7193,8.7815,22.93,87,79,4.81,GA,2023-08-16 06:00:00
329,vanimo,-2.6741,141.3028,28.58,75,65,3.84,PG,2023-08-16 06:00:00
330,tastur,36.5513,9.4431,25.25,58,0,1.11,TN,2023-08-16 06:00:00
331,fleurus,50.4843,4.5518,16.83,84,75,1.96,BE,2023-08-16 06:00:00
332,olinda,-8.0089,-34.8553,23.85,88,40,5.48,BR,2023-08-16 06:00:00
333,nsanje,-16.92,35.262,23.74,74,4,2.81,MW,2023-08-16 06:00:00
334,utiel,39.5667,-1.2,20.51,74,99,1.08,ES,2023-08-16 06:00:00
335,mahebourg,-20.4081,57.7,24.16,78,40,5.37,MU,2023-08-16 06:00:00
336,paamiut,61.994,-49.6678,4.27,94,79,3.94,GL,2023-08-16 06:00:00
337,tomatlan,19.9333,-105.25,25.57,91,100,0.9,MX,2023-08-16 06:00:00
338,ixtapa,20.7,-105.2,29.57,79,100,1.2,MX,2023-08-16 06:00:00
339,podporozhye,60.9112,34.1706,20.04,65,60,1.58,RU,2023-08-16 06:00:00
340,chokurdakh,70.6333,147.9167,19.26,36,14,3.51,RU,2023-08-16 06:00:00
341,tandil,-37.3217,-59.1332,13.69,72,100,1.57,AR,2023-08-16 06:00:00
342,springdale,36.1867,-94.1288,16.74,87,0,1.31,US,2023-08-16 06:00:00
343,dhidhdhoo,6.8833,73.1,27.88,70,16,1.78,MV,2023-08-16 06:00:00
344,singkang,2.1006,102.7994,29.59,71,72,2.5,MY,2023-08-16 06:00:00
345,hami,42.8,93.45,25.92,27,3,0.88,CN,2023-08-16 06:00:00
346,taltal,-25.4,-70.4833,14.51,87,20,1.48,CL,2023-08-16 06:00:00
347,adrar,20.5022,-10.0711,30.79,41,25,3.39,MR,2023-08-16 06:00:00
348,vicuna,-30.0319,-70.7081,15.48,66,100,0.33,CL,2023-08-16 06:00:00
349,filingue,14.3521,3.3168,28.41,66,80,3.39,NE,2023-08-16 06:00:00
350,ibra,22.6906,58.5334,31.58,41,99,2.43,OM,2023-08-16 06:00:00
351,lashio,22.9333,97.75,27.53,78,72,0.76,MM,2023-08-16 06:00:00
352,arraial do cabo,-22.9661,-42.0278,20.72,91,98,7.04,BR,2023-08-16 06:00:00
353,schoningen,52.138,10.9675,18.96,88,60,0.83,DE,2023-08-16 06:00:00
354,mulege,26.8833,-111.9833,32.86,44,52,2.21,MX,2023-08-16 06:00:00
355,hastings,50.8552,0.5729,16.41,49,98,0.11,GB,2023-08-16 06:00:00
356,ostrovnoy,68.0531,39.5131,16.8,81,92,1.49,RU,2023-08-16 06:00:00
357,bonavista,48.6499,-53.1147,13.81,96,100,3.2,CA,2023-08-16 06:00:00
358,mareeba,-17.0,145.4333,28.58,33,100,3.85,AU,2023-08-16 06:00:00
359,santos reyes nopala,16.1092,-97.1561,20.89,87,96,2.06,MX,2023-08-16 06:00:00
360,bardiyah,31.7561,25.0865,26.23,65,0,7.14,LY,2023-08-16 06:00:00
361,cap malheureux,-19.9842,57.6142,25.26,66,4,6.48,MU,2023-08-16 06:00:00
362,micheweni,-4.9667,39.8333,25.92,75,22,4.64,TZ,2023-08-16 06:00:00
363,patamundai,20.5667,86.5667,34.37,51,100,3.24,IN,2023-08-16 06:00:00
364,balkanabat,39.5108,54.3671,32.86,9,15,6.01,TM,2023-08-16 06:00:00
365,lorengau,-2.0226,147.2712,25.02,91,100,2.64,PG,2023-08-16 06:00:00
366,saint-joseph,-21.3667,55.6167,24.18,68,0,1.28,RE,2023-08-16 06:00:00
367,maun,-19.9833,23.4167,17.91,38,0,2.5,BW,2023-08-16 06:00:00
368,znamenskoye,57.1281,73.8282,22.29,50,72,4.56,RU,2023-08-16 06:00:00
369,padang,-0.9492,100.3543,30.03,77,99,3.13,ID,2023-08-16 06:00:00
370,macamic,48.7502,-78.9996,12.51,80,54,2.9,CA,2023-08-16 06:00:00
371,deep river,46.1001,-77.4995,15.42,95,50,0.6,CA,2023-08-16 06:00:00
372,yangambi,0.8102,24.4336,21.83,92,51,0.57,CD,2023-08-16 06:00:00
373,naze,28.3667,129.4833,28.51,71,95,1.16,JP,2023-08-16 06:00:00
374,mitu,1.1983,-70.1733,21.98,98,99,0.92,CO,2023-08-16 06:00:00
375,reyes,-14.3167,-67.3833,20.6,70,0,0.73,BO,2023-08-16 06:00:00
376,karera,25.4667,78.15,32.9,55,3,3.63,IN,2023-08-16 06:00:00
377,coquimbo,-29.9533,-71.3436,14.35,83,100,0.68,CL,2023-08-16 06:00:00
378,pueblo nuevo,23.3833,-105.3833,16.04,72,97,2.72,MX,2023-08-16 06:00:00
379,ilulissat,69.2167,-51.1,5.01,100,17,3.17,GL,2023-08-16 06:00:00
380,te anau,-45.4167,167.7167,4.1,95,85,0.88,NZ,2023-08-16 06:00:00
381,goderich,43.7501,-81.7165,17.98,94,67,4.3,CA,2023-08-16 06:00:00
382,kargasok,59.0556,80.8572,14.14,98,100,5.72,RU,2023-08-16 06:00:00
383,berezovyy,51.6667,135.7,28.02,57,55,2.46,RU,2023-08-16 06:00:00
384,belle fourche,44.6714,-103.8522,22.75,36,0,3.47,US,2023-08-16 06:00:00
385,peleduy,59.6289,112.7406,23.78,58,94,0.43,RU,2023-08-16 06:00:00
386,vostok,46.4856,135.8833,23.48,88,100,0.54,RU,2023-08-16 06:00:00
387,sao gabriel da cachoeira,-0.1303,-67.0892,22.15,99,86,0.91,BR,2023-08-16 06:00:00
388,isangel,-19.55,169.2667,23.06,94,100,5.17,VU,2023-08-16 06:00:00
389,san juan de la maguana,18.8059,-71.2299,22.74,82,6,0.98,DO,2023-08-16 06:00:00
390,ponta do sol,32.6667,-17.1,22.14,80,15,2.11,PT,2023-08-16 06:00:00
391,mayumba,-3.432,10.6554,21.07,89,19,1.72,GA,2023-08-16 06:00:00
392,makaryev,57.8797,43.8069,20.38,80,50,4.71,RU,2023-08-16 06:00:00
393,tigre,-34.426,-58.5796,19.09,70,0,3.7,AR,2023-08-16 06:00:00
394,ha giang,22.8333,104.9833,34.47,56,63,1.54,VN,2023-08-16 06:00:00
395,siemiatycze,52.4272,22.8623,22.93,52,35,4.11,PL,2023-08-16 06:00:00
396,aswan,24.0934,32.907,32.5,30,0,7.47,EG,2023-08-16 06:00:00
397,la ronge,55.1001,-105.2842,15.14,100,100,3.28,CA,2023-08-16 06:00:00
398,dauphin,51.1494,-100.0502,19.57,72,20,3.62,CA,2023-08-16 06:00:00
399,voi,-3.3945,38.563,23.96,59,71,4.75,KE,2023-08-16 06:00:00
400,port blair,11.6667,92.75,30.02,79,75,7.92,IN,2023-08-16 06:00:00
401,esperance,-33.8667,121.9,12.48,86,98,10.08,AU,2023-08-16 06:00:00
402,rosario oeste,-14.8361,-56.4275,23.7,37,58,1.82,BR,2023-08-16 06:00:00
403,lompoc,34.6391,-120.4579,17.24,95,100,3.32,US,2023-08-16 06:00:00
404,pasni,25.2631,63.471,27.54,80,100,5.36,PK,2023-08-16 06:00:00
405,conselheiro pena,-19.1722,-41.4722,19.39,93,75,1.57,BR,2023-08-16 06:00:00
406,lubao,14.9167,120.55,33.84,59,83,2.88,PH,2023-08-16 06:00:00
407,christchurch,-43.5333,172.6333,7.94,87,75,5.32,NZ,2023-08-16 06:00:00
408,tuatapere,-46.1333,167.6833,7.19,90,94,3.86,NZ,2023-08-16 06:00:00
409,margate,51.3813,1.3862,17.45,92,100,1.86,GB,2023-08-16 06:00:00
410,zhangjiakou,40.81,114.8794,32.32,34,2,2.75,CN,2023-08-16 06:00:00
411,buala,-8.145,159.5921,28.01,75,80,2.62,SB,2023-08-16 06:00:00
412,pyaozerskiy,65.8333,31.1667,16.75,75,100,2.41,RU,2023-08-16 06:00:00
413,ler,8.3018,30.1418,25.45,81,61,2.36,SS,2023-08-16 06:00:00
414,nara,34.6851,135.8049,33.76,34,45,1.05,JP,2023-08-16 06:00:00
415,flinders,-34.5833,150.8552,17.75,66,71,3.82,AU,2023-08-16 06:00:00
416,sao filipe,14.8961,-24.4956,26.19,86,100,1.11,CV,2023-08-16 06:00:00
417,macusani,-14.0833,-70.4333,1.27,79,9,1.45,PE,2023-08-16 06:00:00
418,iqaluit,63.7506,-68.5145,3.72,93,0,3.14,CA,2023-08-16 06:00:00
419,vestmanna,62.1564,-7.1664,9.7,100,100,1.58,FO,2023-08-16 06:00:00
420,rosa zarate,0.3333,-79.4667,22.69,97,98,0.66,EC,2023-08-16 06:00:00
421,laguna de duero,41.5815,-4.7233,16.42,89,0,2.36,ES,2023-08-16 06:00:00
422,sitka,57.0531,-135.33,13.94,88,100,3.19,US,2023-08-16 06:00:00
423,amuntai,-2.4177,115.2494,36.17,30,64,0.2,ID,2023-08-16 06:00:00
424,southport,53.6478,-3.0065,14.95,88,20,0.7,GB,2023-08-16 06:00:00
425,igrim,63.1906,64.4162,24.38,48,59,1.85,RU,2023-08-16 06:00:00
426,hobyo,5.3505,48.5268,27.82,64,11,9.76,SO,2023-08-16 06:00:00
427,broken hill,-31.95,141.4333,17.51,35,58,4.1,AU,2023-08-16 06:00:00
428,pineville,31.3224,-92.4343,26.16,51,0,2.49,US,2023-08-16 06:00:00
429,lyuban,52.7985,28.0048,23.7,65,0,3.39,BY,2023-08-16 06:00:00
430,palmer,42.1584,-72.3287,18.88,84,100,1.21,US,2023-08-16 06:00:00
431,colac,-38.3333,143.5833,13.25,54,1,4.16,AU,2023-08-16 06:00:00
432,ranau,5.9538,116.6641,24.07,91,97,0.07,MY,2023-08-16 06:00:00
433,darhan,49.4867,105.9228,19.08,88,100,3.93,MN,2023-08-16 06:00:00
434,krasnyy yar,46.5331,48.3456,31.68,29,0,5.35,RU,2023-08-16 06:00:00
435,moa,20.6569,-74.9403,27.38,86,47,5.75,CU,2023-08-16 06:00:00
436,nenton,15.8,-91.75,19.63,98,100,0.15,GT,2023-08-16 06:00:00
437,manggar,-2.8833,108.2667,28.89,69,78,5.86,ID,2023-08-16 06:00:00
438,labuan,5.2767,115.2417,30.05,66,20,5.65,MY,2023-08-16 06:00:00
439,salina,38.8403,-97.6114,19.75,75,0,4.2,US,2023-08-16 06:00:00
440,rantauprapat,2.1,99.8333,31.61,60,94,1.24,ID,2023-08-16 06:00:00
441,tsogni,-2.7942,10.0988,21.07,89,12,2.19,GA,2023-08-16 06:00:00
442,kayerkan,69.3497,87.7602,9.89,100,80,8.27,RU,2023-08-16 06:00:00
443,ketchikan,55.3422,-131.6461,15.26,88,100,1.18,US,2023-08-16 06:00:00
444,usinsk,65.9939,57.5281,23.5,46,55,2.1,RU,2023-08-16 06:00:00
445,hay river,60.8156,-115.7999,11.63,91,75,3.36,CA,2023-08-16 06:00:00
446,guerrero negro,27.9769,-114.0611,21.04,86,36,4.7,MX,2023-08-16 06:00:00
447,half moon bay,37.4636,-122.4286,17.47,85,100,1.25,US,2023-08-16 06:00:00
448,cockburn town,21.4612,-71.1419,28.18,78,43,8.61,TC,2023-08-16 06:00:00
449,narasapur,16.45,81.6667,33.58,52,100,3.59,IN,2023-08-16 06:00:00
450,baykit,61.67,96.37,13.51,92,100,2.06,RU,2023-08-16 06:00:00
451,omboue,-1.5746,9.2618,22.21,87,28,2.3,GA,2023-08-16 06:00:00
452,nha trang,12.25,109.1833,34.0,67,100,4.31,VN,2023-08-16 06:00:00
453,kondinskoye,59.6481,67.41,20.2,64,69,3.37,RU,2023-08-16 06:00:00
454,tocopilla,-22.092,-70.1979,17.0,69,11,1.11,CL,2023-08-16 06:00:00
455,aripuana,-9.1667,-60.6333,22.28,47,36,0.7,BR,2023-08-16 06:00:00
456,pangnirtung,66.1451,-65.7125,12.29,53,6,1.47,CA,2023-08-16 06:00:00
457,jiazi,22.8779,116.067,31.2,72,98,7.96,CN,2023-08-16 06:00:00
458,lodja,-3.4833,23.4333,23.69,82,56,1.14,CD,2023-08-16 06:00:00
459,riyadh,24.6877,46.7219,37.76,13,17,3.31,SA,2023-08-16 06:00:00
460,ouegoa,-20.35,164.4333,21.88,61,14,1.77,NC,2023-08-16 06:00:00
461,nanortalik,60.1432,-45.2371,6.47,93,71,1.7,GL,2023-08-16 06:00:00
462,lakatoro,-16.0999,167.4164,23.89,90,89,5.13,VU,2023-08-16 06:00:00
463,ballina,-28.8667,153.5667,22.1,63,21,3.7,AU,2023-08-16 06:00:00
464,ouallam,14.3188,2.0866,27.82,67,100,4.56,NE,2023-08-16 06:00:00
465,takoradi,4.8845,-1.7554,23.17,91,98,1.64,GH,2023-08-16 06:00:00
466,la union,-5.4,-80.75,22.07,78,44,5.02,PE,2023-08-16 06:00:00
467,canutama,-6.5339,-64.3831,23.45,66,11,0.59,BR,2023-08-16 06:00:00
468,camabatela,-8.1881,15.375,15.11,84,62,0.69,AO,2023-08-16 06:00:00
469,ca mau,9.1769,105.15,32.56,54,34,5.9,VN,2023-08-16 06:00:00
470,emmendingen,48.121,7.8536,20.14,87,14,0.22,DE,2023-08-16 06:00:00
471,sorland,67.667,12.6934,13.92,88,72,9.56,NO,2023-08-16 06:00:00
472,lufkin,31.3382,-94.7291,25.25,52,0,2.45,US,2023-08-16 06:00:00
473,sabang,5.8933,95.3214,28.22,77,100,8.25,ID,2023-08-16 06:00:00
474,golyshmanovo,56.3979,68.3728,23.61,41,2,2.16,RU,2023-08-16 06:00:00
475,nenjiang,49.1833,125.2167,28.04,66,58,0.98,CN,2023-08-16 06:00:00
476,nalut,30.3333,10.85,26.12,44,0,6.02,LY,2023-08-16 06:00:00
477,shelburne,44.0787,-80.2041,15.7,86,85,3.41,CA,2023-08-16 06:00:00
478,barcelona,41.3888,2.159,25.67,80,40,2.62,ES,2023-08-16 06:00:00
479,vallentuna,59.5344,18.0776,17.9,93,75,3.38,SE,2023-08-16 06:00:00
480,naron,43.5167,-8.1528,18.93,91,94,4.35,ES,2023-08-16 06:00:00
481,puksoozero,62.5903,40.6066,19.88,62,24,1.46,RU,2023-08-16 06:00:00
482,jalu,29.0331,21.5482,26.12,52,0,3.7,LY,2023-08-16 06:00:00
483,pozhva,59.0912,56.0847,23.65,53,9,1.17,RU,2023-08-16 06:00:00
484,melfort,52.8667,-104.6177,16.47,88,100,5.48,CA,2023-08-16 06:00:00
485,sisimiut,66.9395,-53.6735,9.42,76,57,1.55,GL,2023-08-16 06:00:00
486,grindavik,63.8424,-22.4338,11.84,93,75,4.1,IS,2023-08-16 06:00:00
487,ferndale,42.4606,-83.1347,16.45,92,0,2.02,US,2023-08-16 06:00:00
488,san carlos de bariloche,-41.1456,-71.3082,6.33,67,100,0.48,AR,2023-08-16 06:00:00
489,burnie,-41.0667,145.9167,12.47,69,89,5.72,AU,2023-08-16 06:00:00
490,buin,-33.7333,-70.75,12.17,97,100,0.26,CL,2023-08-16 06:00:00
491,ko samui,9.5357,99.9357,31.95,58,20,4.75,TH,2023-08-16 06:00:00
492,santiago,-33.4569,-70.6483,13.1,80,100,0.43,CL,2023-08-16 06:00:00
493,pacific grove,36.6177,-121.9166,16.56,92,100,1.04,US,2023-08-16 06:00:00
494,torbeyevo,54.0797,43.2473,21.17,69,0,4.72,RU,2023-08-16 06:00:00
495,rabo de peixe,37.8,-25.5833,20.91,88,20,0.97,PT,2023-08-16 06:00:00
496,khorixas,-20.3667,14.9667,16.86,47,48,1.05,NA,2023-08-16 06:00:00
497,bolivar,37.6145,-93.4105,16.06,90,0,1.97,US,2023-08-16 06:00:00
498,eregli,37.5133,34.0467,32.51,15,0,2.03,TR,2023-08-16 06:00:00
499,zhongxing,33.7039,118.6792,31.68,63,57,1.54,CN,2023-08-16 06:00:00
500,fort nelson,58.8053,-122.7002,12.77,76,20,1.02,CA,2023-08-16 06:00:00
501,cabra,37.4725,-4.4421,22.34,30,46,0.47,ES,2023-08-16 06:00:00
502,lota,-37.0833,-73.1667,11.52,97,100,4.6,CL,2023-08-16 06:00:00
503,erdenet,49.0333,104.0833,12.11,94,100,2.1,MN,2023-08-16 06:00:00
504,kutum,14.2,24.6667,27.54,31,17,2.29,SD,2023-08-16 06:00:00
505,alice springs,-23.7,133.8833,30.75,16,3,6.46,AU,2023-08-16 06:00:00
506,jasper,37.2001,-94.3502,16.86,81,6,2.52,US,2023-08-16 06:00:00
507,trelew,-43.249,-65.3051,3.98,78,100,5.9,AR,2023-08-16 06:00:00
508,san patricio,28.017,-97.5169,29.23,72,80,3.26,US,2023-08-16 06:00:00
509,uvalde,29.3669,-99.767,29.05,48,0,2.63,US,2023-08-16 06:00:00
510,fare,-16.7,-151.0167,25.24,78,97,8.2,PF,2023-08-16 06:00:00
511,mayya,61.7333,130.2811,16.29,91,100,2.06,RU,2023-08-16 06:00:00
512,yuci,37.6803,112.7319,37.09,38,0,2.66,CN,2023-08-16 06:00:00
513,college,64.8569,-147.8028,17.86,58,40,2.34,US,2023-08-16 06:00:00
514,primo tapia,32.22,-116.9172,22.87,75,59,3.34,MX,2023-08-16 06:00:00
515,sokolovo,52.5318,84.7896,17.42,54,77,2.15,RU,2023-08-16 06:00:00
516,lulea,65.5842,22.1547,16.04,94,75,5.54,SE,2023-08-16 06:00:00
517,coihaique,-45.5752,-72.0662,-2.03,93,100,2.22,CL,2023-08-16 06:00:00
518,nakambala,-15.8324,27.7799,20.44,24,0,3.84,ZM,2023-08-16 06:00:00
519,sebinkarahisar,40.2883,38.4236,22.81,28,0,1.11,TR,2023-08-16 06:00:00
520,houma,29.5958,-90.7195,27.11,77,40,2.33,US,2023-08-16 06:00:00
521,muli,2.9167,73.5667,27.77,68,55,1.33,MV,2023-08-16 06:00:00
522,setermoen,68.861,18.3486,14.14,93,87,1.18,NO,2023-08-16 06:00:00
523,port augusta,-32.5,137.7667,22.63,38,59,2.34,AU,2023-08-16 06:00:00
524,bosaso,11.2842,49.1816,35.99,32,0,10.01,SO,2023-08-16 06:00:00
525,cardston,49.2,-113.3019,29.07,24,2,6.68,CA,2023-08-16 06:00:00
526,khilok,51.3674,110.4676,24.26,51,100,2.47,RU,2023-08-16 06:00:00
527,jizan,17.3333,42.6667,36.22,39,18,2.77,SA,2023-08-16 06:00:00
528,lagoa,39.05,-27.9833,23.31,80,47,7.34,PT,2023-08-16 06:00:00
529,midyat,37.4247,41.3393,34.59,9,0,2.77,TR,2023-08-16 06:00:00
530,saint-leu,-21.15,55.2833,24.77,71,0,0.73,RE,2023-08-16 06:00:00
531,omsukchan,62.5333,155.8,15.62,72,100,2.93,RU,2023-08-16 06:00:00
532,okha,53.5739,142.9478,20.07,77,83,3.64,RU,2023-08-16 06:00:00
533,ambilobe,-13.2,49.05,28.62,48,0,1.28,MG,2023-08-16 06:00:00
534,moquegua,-17.1956,-70.9353,15.94,47,0,0.43,PE,2023-08-16 06:00:00
535,waw,7.7029,27.9953,24.19,87,46,2.07,SS,2023-08-16 06:00:00
536,pahrump,36.2083,-115.9839,32.12,29,70,3.39,US,2023-08-16 06:00:00
537,manokwari,-0.8667,134.0833,28.1,73,93,1.47,ID,2023-08-16 06:00:00
538,zaragoza,41.6561,-0.8773,22.74,60,0,1.53,ES,2023-08-16 06:00:00
539,mon,26.75,95.1,24.19,96,100,0.4,IN,2023-08-16 06:00:00
540,cururupu,-1.8283,-44.8683,23.76,92,45,1.99,BR,2023-08-16 06:00:00
541,bubaque,11.2833,-15.8333,25.17,91,100,10.08,GW,2023-08-16 06:00:00
542,san cristobal,7.7669,-72.225,22.1,95,84,1.21,VE,2023-08-16 06:00:00
543,nivala,63.9167,24.9667,15.94,95,100,3.9,FI,2023-08-16 06:00:00
544,mondovi,44.396,7.8176,22.48,78,1,1.17,IT,2023-08-16 06:00:00
545,manali,13.1667,80.2667,32.35,77,99,2.3,IN,2023-08-16 06:00:00
546,puerto leguizamo,-0.1934,-74.7819,21.14,99,63,0.47,CO,2023-08-16 06:00:00
547,salvador,13.8333,-88.9167,21.7,99,100,1.19,SV,2023-08-16 06:00:00
548,sumter,28.7086,-82.0831,25.68,89,62,1.44,US,2023-08-16 06:00:00
549,kharp,66.8014,65.8081,14.63,74,97,1.22,RU,2023-08-16 06:00:00
550,port macquarie,-31.4333,152.9167,18.27,64,74,5.03,AU,2023-08-16 06:00:00
551,turkan,40.3639,50.215,31.1,42,0,2.56,AZ,2023-08-16 06:00:00
552,muros,42.7762,-9.0603,17.8,89,12,2.99,ES,2023-08-16 06:00:00
553,maridi,4.9158,29.4742,21.49,93,91,1.98,SS,2023-08-16 06:00:00
554,ouadda,8.0777,22.4007,21.45,91,94,0.7,CF,2023-08-16 06:00:00
555,irbit,57.6705,63.071,26.23,47,22,1.28,RU,2023-08-16 06:00:00
556,parkent,41.2944,69.6764,27.73,11,1,3.93,UZ,2023-08-16 06:00:00
557,rawson,-43.3002,-65.1023,4.45,76,100,6.38,AR,2023-08-16 06:00:00
558,mindelo,16.8901,-24.9804,26.75,78,75,2.56,CV,2023-08-16 06:00:00
559,eureka,40.8021,-124.1637,17.97,85,63,1.69,US,2023-08-16 06:00:00
560,west memphis,35.1465,-90.1845,19.57,85,0,2.68,US,2023-08-16 06:00:00
561,visby,57.6409,18.296,18.12,100,75,4.25,SE,2023-08-16 06:00:00
562,matara,5.9485,80.5353,30.48,62,65,5.29,LK,2023-08-16 06:00:00
563,atambua,-9.1061,124.8925,27.75,52,12,0.61,ID,2023-08-16 06:00:00
564,angoche,-16.2325,39.9086,25.38,68,12,3.72,MZ,2023-08-16 06:00:00
565,kungurtug,50.5994,97.5228,18.05,39,78,2.29,RU,2023-08-16 06:00:00
566,curico,-34.9833,-71.2333,11.53,89,100,0.66,CL,2023-08-16 06:00:00
567,eyl,7.9803,49.8164,29.97,46,15,12.42,SO,2023-08-16 06:00:00
568,haveri,14.8,75.4,28.41,57,28,4.94,IN,2023-08-16 06:00:00
569,troitsko-pechorsk,62.7084,56.1964,26.61,46,64,0.93,RU,2023-08-16 06:00:00
570,ojinaga,29.5667,-104.4167,31.58,40,0,5.01,MX,2023-08-16 06:00:00
571,lewisporte,49.2499,-55.0482,13.84,99,100,1.98,CA,2023-08-16 06:00:00
572,grand gaube,-20.0064,57.6608,25.21,66,3,6.45,MU,2023-08-16 06:00:00
573,zwedru,6.0667,-8.1281,19.96,99,85,0.73,LR,2023-08-16 06:00:00
574,xining,36.6167,101.7667,23.96,47,79,6.11,CN,2023-08-16 06:00:00
575,yelkhovka,53.8667,50.2832,25.2,51,8,5.18,RU,2023-08-16 06:00:00
576,corinth,37.9407,22.9573,27.93,50,0,2.78,GR,2023-08-16 06:00:00
577,mariental,-24.6333,17.9667,16.33,38,99,3.71,NA,2023-08-16 06:00:00
578,quballat,36.5418,9.6633,24.77,60,0,1.52,TN,2023-08-16 06:00:00
579,iquique,-20.2208,-70.1431,16.63,72,21,1.45,CL,2023-08-16 06:00:00
580,bealanana,-14.55,48.7333,19.59,72,71,1.26,MG,2023-08-16 06:00:00
581,beloha,-25.1667,45.05,20.13,67,3,3.68,MG,2023-08-16 06:00:00
582,oromocto,45.8351,-66.4792,17.84,97,100,0.4,CA,2023-08-16 06:00:00
583,robertsport,6.7533,-11.3686,25.69,78,100,4.91,LR,2023-08-16 06:00:00
584,sairang,23.8,92.6667,33.79,83,75,1.14,IN,2023-08-16 06:00:00
585,kinsale,51.7075,-8.5306,13.65,94,75,2.43,IE,2023-08-16 06:00:00
586,bambanglipuro,-7.95,110.2833,28.17,60,49,8.54,ID,2023-08-16 06:00:00
587,nyagan,62.1406,65.3936,24.12,56,68,1.74,RU,2023-08-16 06:00:00
